{"type": "FeatureCollection", "features": [{"type": "Feature", "geometry": {"type": "Point", "coordinates": [-111.01001850799999, 31.806571113000103]}, "properties": {"name": "GREEN VALLEY HOSPITAL"}}, {"type": "Feature", "geometry": {"type": "Point", "coordinates": [-111.010122721, 32.3200039990001]}, "properties": {"name": "NORTHWEST MED CENTER"}}, {"type": "Feature", "geometry": {"type": "Point", "coordinates": [-110.27389981299999, 31.552844648000104]}, "properties": {"name": "SIERRA VISTA REGIONAL HEALTH CENTER"}}, {"type": "Feature", "geometry": {"type": "Point", "coordinates": [-111.485688668, 33.073134871]}, "properties": {"name": "FLORENCE HOSPITAL AT ANTHEM"}}, {"type": "Feature", "geometry": {"type": "Point", "coordinates": [-111.68191226799999, 33.4118848700001]}, "properties": {"name": "ACUITY SPECIALTY HOSPITAL OF ARIZONA AT MESA"}}, {"type": "Feature", "geometry": {"type": "Point", "coordinates": [-110.887300224, 32.516775169]}, "properties": {"name": "SIERRA TUCSON, INC."}}, {"type": "Feature", "geometry": {"type": "Point", "coordinates": [-109.595113625, 31.3645888550001]}, "properties": {"name": "DOUGLAS COMMUNITY HOSPITAL, INC"}}, {"type": "Feature", "geometry": {"type": "Point", "coordinates": [-112.275531865, 33.542426520999996]}, "properties": {"name": "ST JOSEPH'S WESTGATE MEDICAL CENTER"}}, {"type": "Feature", "geometry": {"type": "Point", "coordinates": [-110.981182495, 32.1075246340001]}, "properties": {"name": "DHHS PHS IHS TUCSON AREA IHS TUCSON"}}, {"type": "Feature", "geometry": {"type": "Point", "coordinates": [-112.36440186600001, 33.4538635810001]}, "properties": {"name": "WESTERN REGIONAL MEDICAL CENTER CANCER HOSPITAL"}}, {"type": "Feature", "geometry": {"type": "Point", "coordinates": [-110.42658366100001, 35.802106044]}, "properties": {"name": "HOPI HEALTH CARE CENTER/DHHS IHS PHOENIX AREA"}}, {"type": "Feature", "geometry": {"type": "Point", "coordinates": [-109.95984841799999, 33.876574047000105]}, "properties": {"name": "WHITERIVER INDIAN HOSPITAL"}}, {"type": "Feature", "geometry": {"type": "Point", "coordinates": [-112.066253053, 33.49567218]}, "properties": {"name": "PHOENIX VA HEALTH CARE SYSTEM"}}, {"type": "Feature", "geometry": {"type": "Point", "coordinates": [-111.844626206, 33.3815372660001]}, "properties": {"name": "HACIENDA CHILDREN'S HOSPITAL, INC"}}, {"type": "Feature", "geometry": {"type": "Point", "coordinates": [-111.922322403, 33.67112932]}, "properties": {"name": "SCOTTSDALE HEALTHCARE THOMPSON PEAK"}}, {"type": "Feature", "geometry": {"type": "Point", "coordinates": [-110.879298849, 32.2523042510001]}, "properties": {"name": "TMC HEALTHCARE"}}, {"type": "Feature", "geometry": {"type": "Point", "coordinates": [-111.687427336, 33.313908692]}, "properties": {"name": "GILBERT HOSPITAL"}}, {"type": "Feature", "geometry": {"type": "Point", "coordinates": [-111.68649231399999, 33.411692068]}, "properties": {"name": "BANNER HEART HOSPITAL"}}, {"type": "Feature", "geometry": {"type": "Point", "coordinates": [-112.071994754, 33.4926529410001]}, "properties": {"name": "KINDRED HOSPITAL ARIZONA - PHOENIX"}}, {"type": "Feature", "geometry": {"type": "Point", "coordinates": [-111.883449988, 33.587592101999995]}, "properties": {"name": "KINDRED HOSPITAL ARIZONA - SCOTTSDALE"}}, {"type": "Feature", "geometry": {"type": "Point", "coordinates": [-111.997469967, 33.639758182]}, "properties": {"name": "ABRAZO SCOTTSDALE CAMPUS"}}, {"type": "Feature", "geometry": {"type": "Point", "coordinates": [-111.606493954, 35.20669667]}, "properties": {"name": "GUIDANCE CENTER, THE"}}, {"type": "Feature", "geometry": {"type": "Point", "coordinates": [-111.89837164, 33.6436695850001]}, "properties": {"name": "SCOTTSDALE LIBERTY HOSPITAL"}}, {"type": "Feature", "geometry": {"type": "Point", "coordinates": [-110.27167493200001, 31.551398630999998]}, "properties": {"name": "RCHP-SIERRA VISTA, INC."}}, {"type": "Feature", "geometry": {"type": "Point", "coordinates": [-110.85851627, 32.2256468420001]}, "properties": {"name": "KINDRED HOSPITAL OF TUCSON"}}, {"type": "Feature", "geometry": {"type": "Point", "coordinates": [-110.87611877799999, 32.2559376840001]}, "properties": {"name": "PALO VERDE BEHAVIORAL HEALTH"}}, {"type": "Feature", "geometry": {"type": "Point", "coordinates": [-111.70987495600001, 33.379952972000105]}, "properties": {"name": "HEALTHSOUTH EAST VALLEY REHABILITATION"}}, {"type": "Feature", "geometry": {"type": "Point", "coordinates": [-112.167005499, 33.3802854030001]}, "properties": {"name": "DIGNITY HEALTH - ARIZONA GENERAL HOSPITAL"}}, {"type": "Feature", "geometry": {"type": "Point", "coordinates": [-112.04204647200001, 33.454944147]}, "properties": {"name": "ST LUKES BEHAVIORAL HOSPITAL"}}, {"type": "Feature", "geometry": {"type": "Point", "coordinates": [-110.838082824, 32.2312412040001]}, "properties": {"name": "CHG HOSPITAL TUCSON, LLC"}}, {"type": "Feature", "geometry": {"type": "Point", "coordinates": [-112.32841054100001, 34.596189333000005]}, "properties": {"name": "MOUNTAIN VALLEY REGIONAL REHABILITATION HOSPITAL"}}, {"type": "Feature", "geometry": {"type": "Point", "coordinates": [-111.710748585, 32.8811552330001]}, "properties": {"name": "BANNER CASA GRANDE MEDICAL CENTER"}}, {"type": "Feature", "geometry": {"type": "Point", "coordinates": [-112.10218154799999, 33.524815925]}, "properties": {"name": "ABRAZO CENTRAL CAMPUS"}}, {"type": "Feature", "geometry": {"type": "Point", "coordinates": [-110.964934892, 32.181232222000105]}, "properties": {"name": "SOUTHERN ARIZONA VA HEALTH CARE SYSTEM"}}, {"type": "Feature", "geometry": {"type": "Point", "coordinates": [-112.03980735200001, 33.4788775600001]}, "properties": {"name": "PHOENIX CHILDREN'S HOSPITAL"}}, {"type": "Feature", "geometry": {"type": "Point", "coordinates": [-111.3937017, 33.026863426]}, "properties": {"name": "FLORENCE COMMUNITY HEALTHCARE"}}, {"type": "Feature", "geometry": {"type": "Point", "coordinates": [-114.63538324299999, 32.682747094]}, "properties": {"name": "YUMA REGIONAL MEDICAL CENTER"}}, {"type": "Feature", "geometry": {"type": "Point", "coordinates": [-112.028090749, 33.4534228420001]}, "properties": {"name": "ARIZONA STATE HOSPITAL"}}, {"type": "Feature", "geometry": {"type": "Point", "coordinates": [-114.55504770299999, 35.1108471740001]}, "properties": {"name": "WESTERN ARIZONA REGIONAL MEDICAL CENTER"}}, {"type": "Feature", "geometry": {"type": "Point", "coordinates": [-111.734800371, 33.3803039250001]}, "properties": {"name": "ARIZONA SPINE & JOINT HOSPITAL"}}, {"type": "Feature", "geometry": {"type": "Point", "coordinates": [-112.201581761, 33.655054195]}, "properties": {"name": "ABRAZO ARROWHEAD CAMPUS"}}, {"type": "Feature", "geometry": {"type": "Point", "coordinates": [-112.029564595, 34.735359639]}, "properties": {"name": "VERDE VALLEY MEDICAL CENTER"}}, {"type": "Feature", "geometry": {"type": "Point", "coordinates": [-112.02934360799999, 33.455044377]}, "properties": {"name": "ARIZONA STATE FORENSIC HOSPITAL"}}, {"type": "Feature", "geometry": {"type": "Point", "coordinates": [-112.11384237899999, 33.6778566340001]}, "properties": {"name": "QUAIL RUN BEHAVIORAL HEALTH"}}, {"type": "Feature", "geometry": {"type": "Point", "coordinates": [-112.261798876, 33.604206945]}, "properties": {"name": "KINDRED HOSPITAL ARIZONA - NW PHOENIX"}}, {"type": "Feature", "geometry": {"type": "Point", "coordinates": [-111.82208245, 33.425483578000105]}, "properties": {"name": "PROMISE HOSPITAL OF PHOENIX"}}, {"type": "Feature", "geometry": {"type": "Point", "coordinates": [-114.438224366, 32.8599458520001]}, "properties": {"name": "US ARMY HOSPITAL-YUMA"}}, {"type": "Feature", "geometry": {"type": "Point", "coordinates": [-110.859774372, 32.1732555200001]}, "properties": {"name": "US AIR FORCE HOSPITAL-TUCSON"}}, {"type": "Feature", "geometry": {"type": "Point", "coordinates": [-110.41787594899999, 33.295757533]}, "properties": {"name": "SAN CARLOS APACHE HEALTHCARE CORPORATION"}}, {"type": "Feature", "geometry": {"type": "Point", "coordinates": [-111.7591372, 33.0730133000001]}, "properties": {"name": "HU-HU-KAM MEMORIAL HOSPITAL (SACATON)"}}, {"type": "Feature", "geometry": {"type": "Point", "coordinates": [-111.68799961299999, 33.411005403000004]}, "properties": {"name": "BANNER BAYWOOD MEDICAL CENTER"}}, {"type": "Feature", "geometry": {"type": "Point", "coordinates": [-112.07999223899999, 33.482144319]}, "properties": {"name": "SELECT SPECIALTY HOSPITAL - PHOENIX"}}, {"type": "Feature", "geometry": {"type": "Point", "coordinates": [-110.884497971, 32.2487826490001]}, "properties": {"name": "TMC HEALTHCARE CENTER FOR GEROPSYCH"}}, {"type": "Feature", "geometry": {"type": "Point", "coordinates": [-112.060175781, 33.463915952]}, "properties": {"name": "SELECT SPECIALTY HOSPITAL - PHOENIX DOWNTOWN"}}, {"type": "Feature", "geometry": {"type": "Point", "coordinates": [-109.048474509, 35.759108758]}, "properties": {"name": "FORT DEFIANCE INDIAN HOSPITAL"}}, {"type": "Feature", "geometry": {"type": "Point", "coordinates": [-112.08117563399999, 33.4356313480001]}, "properties": {"name": "HAVEN SENIOR HORIZONS"}}, {"type": "Feature", "geometry": {"type": "Point", "coordinates": [-111.92322805399999, 33.488841296]}, "properties": {"name": "SELECT SPECIALTY HOSPITAL ARIZONA INC."}}, {"type": "Feature", "geometry": {"type": "Point", "coordinates": [-112.056997616, 33.462887763000005]}, "properties": {"name": "BANNER GOOD SAMARITAN MEDICAL CENTER"}}, {"type": "Feature", "geometry": {"type": "Point", "coordinates": [-111.007336295, 32.3167645620001]}, "properties": {"name": "SONORA BEHAVIORAL HEALTH HOSPITAL (HOSP-PSY)"}}, {"type": "Feature", "geometry": {"type": "Point", "coordinates": [-112.29846082700001, 33.6090404060001]}, "properties": {"name": "ACUITY SPECIALTY HOSPITAL OF ARIZONA AT SUN CITY"}}, {"type": "Feature", "geometry": {"type": "Point", "coordinates": [-110.855121545, 32.2265061250001]}, "properties": {"name": "CARONDELET ST JOSEPH'S HOSPITAL"}}, {"type": "Feature", "geometry": {"type": "Point", "coordinates": [-111.00846928600001, 32.3185910290001]}, "properties": {"name": "HEALTHSOUTH REHABILITATION HOSPITAL OF SOUTHERN ARIZONA"}}, {"type": "Feature", "geometry": {"type": "Point", "coordinates": [-114.285219661, 34.136432475999996]}, "properties": {"name": "LA PAZ REGIONAL"}}, {"type": "Feature", "geometry": {"type": "Point", "coordinates": [-112.09911251700001, 33.5321340030001]}, "properties": {"name": "CORE INSTITUTE SPECIALTY HOSPITAL"}}, {"type": "Feature", "geometry": {"type": "Point", "coordinates": [-112.005970186, 33.4828681320001]}, "properties": {"name": "VALLEY HOSPITAL"}}, {"type": "Feature", "geometry": {"type": "Point", "coordinates": [-110.882963806, 32.2559568450001]}, "properties": {"name": "HEALTHSOUTH REHABILITATION INSTITUTE OF TUCSON"}}, {"type": "Feature", "geometry": {"type": "Point", "coordinates": [-110.308118702, 31.9651049760001]}, "properties": {"name": "BENSON HOSPITAL"}}, {"type": "Feature", "geometry": {"type": "Point", "coordinates": [-109.838144236, 32.2649674]}, "properties": {"name": "NORTHERN COCHISE COMMUNITY HOSPITAL, INC."}}, {"type": "Feature", "geometry": {"type": "Point", "coordinates": [-110.94630651, 32.2419737650001]}, "properties": {"name": "BANNER-UNIVERSITY MEDICAL CENTER TUCSON CAMPUS"}}, {"type": "Feature", "geometry": {"type": "Point", "coordinates": [-113.98571896, 35.2190708250001]}, "properties": {"name": "KINGMAN REGIONAL MEDICAL CENTER-HUALAPAI MOUNTAIN CAMPUS"}}, {"type": "Feature", "geometry": {"type": "Point", "coordinates": [-112.341135469, 33.6393172630001]}, "properties": {"name": "COBALT REHABILITATION HOSPITAL IV, LLC"}}, {"type": "Feature", "geometry": {"type": "Point", "coordinates": [-112.28768323700001, 33.4652729210001]}, "properties": {"name": "COPPER SPRINGS HOSPITAL INC"}}, {"type": "Feature", "geometry": {"type": "Point", "coordinates": [-110.930698728, 32.175854701]}, "properties": {"name": "BANNER-UNIVERSITY MEDICAL CENTER SOUTH CAMPUS"}}, {"type": "Feature", "geometry": {"type": "Point", "coordinates": [-111.918878847, 33.483204420999996]}, "properties": {"name": "BANNER BEHAVIORAL HEALTH HOSPITAL"}}, {"type": "Feature", "geometry": {"type": "Point", "coordinates": [-112.28366707200001, 33.604234727000104]}, "properties": {"name": "BANNER BOSWELL MEDICAL CENTER"}}, {"type": "Feature", "geometry": {"type": "Point", "coordinates": [-112.372505867, 33.659689433000004]}, "properties": {"name": "BANNER DEL E. WEBB MEDICAL CENTER"}}, {"type": "Feature", "geometry": {"type": "Point", "coordinates": [-112.25779128299999, 33.4786071360001]}, "properties": {"name": "BANNER ESTRELLA MEDICAL CENTER"}}, {"type": "Feature", "geometry": {"type": "Point", "coordinates": [-111.72300023, 33.3847536170001]}, "properties": {"name": "BANNER GATEWAY MEDICAL CENTER"}}, {"type": "Feature", "geometry": {"type": "Point", "coordinates": [-112.179685391, 33.608354297000105]}, "properties": {"name": "BANNER THUNDERBIRD MEDICAL CENTER"}}, {"type": "Feature", "geometry": {"type": "Point", "coordinates": [-112.116067175, 33.666128271]}, "properties": {"name": "HONORHEALTH DEER VALLEY MEDICAL CENTER"}}, {"type": "Feature", "geometry": {"type": "Point", "coordinates": [-112.07077103700001, 33.5691484050001]}, "properties": {"name": "JOHN C. LINCOLN NORTH MOUNTAIN HOSPITAL"}}, {"type": "Feature", "geometry": {"type": "Point", "coordinates": [-112.03246465299999, 33.479902452]}, "properties": {"name": "LOS NINOS HOSPITAL"}}, {"type": "Feature", "geometry": {"type": "Point", "coordinates": [-111.956448241, 33.659082627]}, "properties": {"name": "MAYO CLINIC ARIZONA"}}, {"type": "Feature", "geometry": {"type": "Point", "coordinates": [-111.752526685, 33.2868452880001]}, "properties": {"name": "MERCY GILBERT MEDICAL CENTER"}}, {"type": "Feature", "geometry": {"type": "Point", "coordinates": [-111.92296684799999, 33.4883938520001]}, "properties": {"name": "SCOTTSDALE HEALTHCARE OSBORN"}}, {"type": "Feature", "geometry": {"type": "Point", "coordinates": [-111.88518408700001, 33.580838086]}, "properties": {"name": "SCOTTSDALE HEALTHCARE SHEA"}}, {"type": "Feature", "geometry": {"type": "Point", "coordinates": [-112.07940279299999, 33.4809707380001]}, "properties": {"name": "ST. JOSEPH'S HOSPITAL MEDICAL CENTER"}}, {"type": "Feature", "geometry": {"type": "Point", "coordinates": [-112.739931842, 33.978363743]}, "properties": {"name": "WICKENBURG COMMUNITY HOSPITAL"}}, {"type": "Feature", "geometry": {"type": "Point", "coordinates": [-110.826407871, 33.4060443550001]}, "properties": {"name": "COBRE VALLEY REGIONAL MEDICAL CENTER"}}, {"type": "Feature", "geometry": {"type": "Point", "coordinates": [-111.643948199, 35.2096462280001]}, "properties": {"name": "FLAGSTAFF MEDICAL CENTER"}}, {"type": "Feature", "geometry": {"type": "Point", "coordinates": [-111.46358713, 36.917647994]}, "properties": {"name": "PAGE HOSPITAL"}}, {"type": "Feature", "geometry": {"type": "Point", "coordinates": [-109.88302822799999, 31.4178109550001]}, "properties": {"name": "COPPER QUEEN COMMUNITY HOSPITAL"}}, {"type": "Feature", "geometry": {"type": "Point", "coordinates": [-109.28525795700001, 34.1317350350001]}, "properties": {"name": "WHITE MOUNTAIN REGIONAL MEDICAL CENTER"}}, {"type": "Feature", "geometry": {"type": "Point", "coordinates": [-109.73515723700001, 32.8227547160001]}, "properties": {"name": "MT. GRAHAM REGIONAL MEDICAL CENTER"}}, {"type": "Feature", "geometry": {"type": "Point", "coordinates": [-112.48127114799999, 34.5602200540001]}, "properties": {"name": "YAVAPAI REGIONAL MEDICAL CENTER"}}, {"type": "Feature", "geometry": {"type": "Point", "coordinates": [-112.330379812, 34.590539446]}, "properties": {"name": "YAVAPAI REGIONAL MEDICAL CENTER - EAST"}}, {"type": "Feature", "geometry": {"type": "Point", "coordinates": [-111.56559085200001, 33.2144353830001]}, "properties": {"name": "BANNER IRONWOOD MEDICAL CENTER"}}, {"type": "Feature", "geometry": {"type": "Point", "coordinates": [-110.959747134, 31.3402868840001]}, "properties": {"name": "CARONDELET HOLY CROSS HOSPITAL"}}, {"type": "Feature", "geometry": {"type": "Point", "coordinates": [-114.596397715, 35.002235576]}, "properties": {"name": "VALLEY VIEW MEDICAL CENTER"}}, {"type": "Feature", "geometry": {"type": "Point", "coordinates": [-111.89128380700001, 33.3338859900001]}, "properties": {"name": "ARIZONA ORTHOPEDIC SURGICAL HOSPITAL"}}, {"type": "Feature", "geometry": {"type": "Point", "coordinates": [-112.18937168, 33.5812353090001]}, "properties": {"name": "AURORA BEHAVIORAL HEALTHCARE-PHOENIX"}}, {"type": "Feature", "geometry": {"type": "Point", "coordinates": [-112.327661394, 34.590501868000004]}, "properties": {"name": "WINDHAVEN PSYCHIATRIC HOSPITAL"}}, {"type": "Feature", "geometry": {"type": "Point", "coordinates": [-112.731006415, 33.9851748140001]}, "properties": {"name": "REMUDA RANCH CENTER FOR ANOREXIA AND BULIMIA, INC"}}, {"type": "Feature", "geometry": {"type": "Point", "coordinates": [-111.872811822, 33.5830878950001]}, "properties": {"name": "HEALTHSOUTH SCOTTSDALE REHABILITATION HOSPITAL"}}, {"type": "Feature", "geometry": {"type": "Point", "coordinates": [-112.170791624, 33.5026156490001]}, "properties": {"name": "ABRAZO MARYVALE CAMPUS"}}, {"type": "Feature", "geometry": {"type": "Point", "coordinates": [-111.99661458700001, 33.4566498340001]}, "properties": {"name": "OASIS HOSPITAL"}}, {"type": "Feature", "geometry": {"type": "Point", "coordinates": [-112.04221760200001, 33.454777575]}, "properties": {"name": "ST. LUKE'S MEDICAL CENTER"}}, {"type": "Feature", "geometry": {"type": "Point", "coordinates": [-114.63004393799999, 32.683327444]}, "properties": {"name": "YUMA REHABILITATION HOSPITAL"}}, {"type": "Feature", "geometry": {"type": "Point", "coordinates": [-111.93913469, 33.3642810060001]}, "properties": {"name": "AURORA BEHAVIORAL HEALTHCARE-TEMPE"}}, {"type": "Feature", "geometry": {"type": "Point", "coordinates": [-111.567156703, 33.3942795620001]}, "properties": {"name": "BANNER GOLDFIELD MEDICAL CENTER"}}, {"type": "Feature", "geometry": {"type": "Point", "coordinates": [-112.203895815, 33.607804433000105]}, "properties": {"name": "HEALTHSOUTH VALLEY OF THE SUN REHABILITATION"}}, {"type": "Feature", "geometry": {"type": "Point", "coordinates": [-111.00017368, 32.228117729000104]}, "properties": {"name": "CARONDELET ST. MARY'S HOSPITAL"}}, {"type": "Feature", "geometry": {"type": "Point", "coordinates": [-111.75905997299999, 33.072998951]}, "properties": {"name": "GILA RIVER HEALTH CARE CORPORATION"}}, {"type": "Feature", "geometry": {"type": "Point", "coordinates": [-110.946855124, 32.241352692000106]}, "properties": {"name": "UNIVERSITY OF ARIZONA MEDICAL CENTER- UNIVERSITY CAMPUS, THE"}}, {"type": "Feature", "geometry": {"type": "Point", "coordinates": [-109.543523926, 35.7107560690001]}, "properties": {"name": "SAGE MEMORIAL HOSPITAL"}}, {"type": "Feature", "geometry": {"type": "Point", "coordinates": [-110.714116824, 35.0323107520001]}, "properties": {"name": "US PHS WINSLOW INDIAN HOSPITAL"}}, {"type": "Feature", "geometry": {"type": "Point", "coordinates": [-114.30196130899999, 34.1473374180001]}, "properties": {"name": "PARKER IHS INDIAN HOSPITAL"}}, {"type": "Feature", "geometry": {"type": "Point", "coordinates": [-110.01770074, 34.202493829]}, "properties": {"name": "SUMMIT HEALTHCARE ASSOCIATION"}}, {"type": "Feature", "geometry": {"type": "Point", "coordinates": [-114.036977425, 35.2200708440001]}, "properties": {"name": "KINGMAN REGIONAL MEDICAL CENTER"}}, {"type": "Feature", "geometry": {"type": "Point", "coordinates": [-110.692508852, 35.035807688]}, "properties": {"name": "LITTLE COLORADO MEDICAL CENTER"}}, {"type": "Feature", "geometry": {"type": "Point", "coordinates": [-114.338789749, 34.480453987]}, "properties": {"name": "HAVASU REGIONAL MEDICAL CENTER"}}, {"type": "Feature", "geometry": {"type": "Point", "coordinates": [-111.877567506, 33.3894771600001]}, "properties": {"name": "BANNER DESERT MEDICAL CENTER"}}, {"type": "Feature", "geometry": {"type": "Point", "coordinates": [-112.05738173799999, 33.464421444]}, "properties": {"name": "BANNER - UNIVERSITY MEDICAL CENTER PHOENIX CAMPUS"}}, {"type": "Feature", "geometry": {"type": "Point", "coordinates": [-111.752038895, 33.287130823000005]}, "properties": {"name": "PHOENIX CHILDREN'S HOSPITAL AT DIGNITY HEALTH'S MERCY GILBERT"}}, {"type": "Feature", "geometry": {"type": "Point", "coordinates": [-112.026412963, 33.4578470960001]}, "properties": {"name": "MARICOPA MEDICAL CENTER"}}, {"type": "Feature", "geometry": {"type": "Point", "coordinates": [-111.611163283, 33.391497073000004]}, "properties": {"name": "MOUNTAIN VISTA MEDICAL CENTER, LP"}}, {"type": "Feature", "geometry": {"type": "Point", "coordinates": [-112.35316695799999, 33.461821968]}, "properties": {"name": "ABRAZO WEST CAMPUS"}}, {"type": "Feature", "geometry": {"type": "Point", "coordinates": [-110.948770183, 32.4290227610001]}, "properties": {"name": "ORO VALLEY HOSPITAL"}}, {"type": "Feature", "geometry": {"type": "Point", "coordinates": [-111.320651146, 34.230076782]}, "properties": {"name": "PAYSON REGIONAL"}}, {"type": "Feature", "geometry": {"type": "Point", "coordinates": [-112.039667726, 33.480867227]}, "properties": {"name": "ABRAZO ARIZONA HEART HOSPITAL"}}, {"type": "Feature", "geometry": {"type": "Point", "coordinates": [-111.925551615, 33.490191044]}, "properties": {"name": "GREENBAUM SURGICAL SPECIALTY HOSPITAL"}}, {"type": "Feature", "geometry": {"type": "Point", "coordinates": [-109.97538595299999, 34.1652320950001]}, "properties": {"name": "COMMUNITY COUNSELING CENTERS INC AT PINEVIEW HOSPITAL"}}, {"type": "Feature", "geometry": {"type": "Point", "coordinates": [-111.847384478, 33.3402740610001]}, "properties": {"name": "SOUTHWESTERN CHILDREN'S HEALTH SERVICES, INC (ACADIA HEALTHCARE)"}}, {"type": "Feature", "geometry": {"type": "Point", "coordinates": [-111.940612498, 33.412596857]}, "properties": {"name": "TEMPE ST LUKE'S HOSPITAL, A CAMPUS OF ST LUKE'S MEDICAL CENTER"}}, {"type": "Feature", "geometry": {"type": "Point", "coordinates": [-111.874611857, 33.2973907740001]}, "properties": {"name": "CHANDLER REGIONAL MEDICAL CENTER"}}, {"type": "Feature", "geometry": {"type": "Point", "coordinates": [-111.88993631299999, 33.5616182270001]}, "properties": {"name": "HONORHEALTH REHABILITATION HOSPITAL"}}, {"type": "Feature", "geometry": {"type": "Point", "coordinates": [-112.36233249200001, 33.5376874840001]}, "properties": {"name": "US AIR FORCE HOSPITAL-GLENDALE - CLOSED"}}, {"type": "Feature", "geometry": {"type": "Point", "coordinates": [-110.35266627200001, 31.556841901]}, "properties": {"name": "US ARMY HOSPITAL-FT HUACHUCA"}}, {"type": "Feature", "geometry": {"type": "Point", "coordinates": [-112.04885831, 33.4971556350001]}, "properties": {"name": "PHOENIX INDIAN MEDICAL CENTER"}}, {"type": "Feature", "geometry": {"type": "Point", "coordinates": [-111.236791945, 36.135855091000096]}, "properties": {"name": "TUBA CITY REGIONAL HEALTH CARE"}}, {"type": "Feature", "geometry": {"type": "Point", "coordinates": [-109.608100599, 36.157602862]}, "properties": {"name": "CHINLE COMPREHENSIVE HEALTH CARE FACILITY"}}, {"type": "Feature", "geometry": {"type": "Point", "coordinates": [-111.89048857200001, 31.918505705]}, "properties": {"name": "SELLS HOSPITAL"}}, {"type": "Feature", "geometry": {"type": "Point", "coordinates": [-110.45435598700001, 33.353800694]}, "properties": {"name": "SAN CARLOS HOSPITAL"}}, {"type": "Feature", "geometry": {"type": "Point", "coordinates": [-110.229779632, 31.5524177990001]}, "properties": {"name": "CANYON VISTA MEDICAL CENTER"}}]}